[{"address": "280 Gloucester Road, Causeway Bay", "id": "68", "lng": "114.183915", "name": "World Trade Centre", "lat": "22.282115", "vacancy": "141"}, {"address": "9 Edinburgh Place, Central", "id": "69", "lng": "114.160400", "name": "Star Ferry", "lat": "22.283080", "vacancy": "266"}, {"address": "1 Edinburgh Place, Centre", "id": "70", "lng": "114.161725", "name": "City Hall", "lat": "22.281899", "vacancy": "129"}, {"address": "1 Shek Pai Tau Path, Tuen Mun", "id": "541", "lng": "113.974686", "name": "Chelsea Heights Phase I", "lat": "22.401599", "vacancy": "14"}, {"address": "19 Kwai Yi Road, Kwai Fong", "id": "73", "lng": "114.127902", "name": "Kwai Fong", "lat": "22.355623", "vacancy": "NA"}, {"address": "15 Watson Road, Tin Hau", "id": "74", "lng": "114.190478", "name": "Victoria Centre", "lat": "22.287395", "vacancy": "33"}, {"address": "262 Gloucester Road, Causeway Bay", "id": "75", "lng": "114.182788", "name": "COFCO Tower", "lat": "22.281704", "vacancy": "41"}, {"address": "367 Castle Peak Road, Kwai Chung", "id": "76", "lng": "114.135952", "name": "Kwai Sing Centre", "lat": "22.365401", "vacancy": "23"}, {"address": "Lower G/F Po Sing Centre, 1-25 Ta Chuen Ping Street, Kwai Chung", "id": "78", "lng": "114.135944", "name": "Po Sing Centre", "lat": "22.366671", "vacancy": "6"}, {"address": "40-42 Hing Fat Street, Tin Hau", "id": "79", "lng": "114.191707", "name": "Viking Gardens", "lat": "22.283916", "vacancy": "32"}, {"address": "9 Sai Ching Street, Yuen Long", "id": "80", "lng": "114.027537", "name": "Fu Shing Building", "lat": "22.442183", "vacancy": "118"}, {"address": "310 Gloucester Road, Causeway Bay", "id": "82", "lng": "114.186253", "name": "The Park Lane", "lat": "22.280668", "vacancy": "148"}, {"address": "Mei Foo Sun Chuen, Lai Chi Kok", "id": "83", "lng": "114.137805", "name": "Mei Foo Sun Chuen ", "lat": "22.337699", "vacancy": "NA"}, {"address": "60 Sau Fu Street, Yuen Long", "id": "85", "lng": "114.026598", "name": "Ho Shun Fook Building", "lat": "22.445409", "vacancy": "155"}, {"address": "423 Sai Ching Street, Yuen Long", "id": "86", "lng": "114.027662", "name": "Ho Shun Tai Building", "lat": "22.442069", "vacancy": "88"}, {"address": "77 Mody Road, Tsim Sha Tsui", "id": "87", "lng": "114.178722", "name": "Chinachem Golden Plaza", "lat": "22.300212", "vacancy": "246"}, {"address": "3 Peace Avenue, Mongkok", "id": "88", "lng": "114.174052", "name": "Onbury", "lat": "22.317959", "vacancy": "23"}, {"address": "Lung Cheung Road, Wong Tai Sin", "id": "89", "lng": "114.196658", "name": "Tropicana Gardens", "lat": "22.342295", "vacancy": "NA"}, {"address": "Kowloon Park Drive, Tsim Sha Tsui", "id": "90", "lng": "114.169858", "name": "The Sun Arcade", "lat": "22.296800", "vacancy": "122"}, {"address": "2-6 Fung Cheung Road, Yuen Long", "id": "91", "lng": "114.031543", "name": "Transport Plaza", "lat": "22.443905", "vacancy": "427"}, {"address": "Heung Sze Wui Road, Tuen Mun", "id": "92", "lng": "113.974603", "name": "Hong Lai Gardens", "lat": "22.398776", "vacancy": "49"}, {"address": "2 Tuen Lung Street, Tuen Mun", "id": "93", "lng": "113.975467", "name": "Trend Plaza", "lat": "22.393473", "vacancy": "31"}, {"address": "2-16 Wang Pok Street, Shatin", "id": "94", "lng": "114.190674", "name": "Shatin Centre", "lat": "22.382575", "vacancy": "250"}, {"address": "26-28 Tat Chee Road, Yau Yat Chuen", "id": "95", "lng": "114.175335", "name": "Yau Yat House", "lat": "22.331271", "vacancy": "9"}, {"address": "Yat Tung Estate, Tung Chung", "id": "96", "lng": "113.936269", "name": "Yat Tung Car Park", "lat": "22.281715", "vacancy": "NA"}, {"address": "1 Yuk Nga Lane, Tsueng Kwan O", "id": "97", "lng": "114.254831", "name": "Radiant Tower", "lat": "22.323882", "vacancy": "NA"}, {"address": "Taikoo Shing Estate, Taikoo Shing", "id": "98", "lng": "114.219084", "name": "Taikoo Shing", "lat": "22.287238", "vacancy": "NA"}, {"address": "Fu Keung Court, Wang Tau Hom", "id": "100", "lng": "114.184894", "name": "Fu Keung Court", "lat": "22.340594", "vacancy": "NA"}, {"address": "Electric Road, North Point", "id": "102", "lng": "114.190173", "name": "Harbour Heights O/A", "lat": "22.287713", "vacancy": "0"}, {"address": "King Shan Court, Hammer Hill", "id": "103", "lng": "114.210225", "name": "King Shan Court", "lat": "22.342668", "vacancy": "NA"}, {"address": "Electric Road, North Point", "id": "104", "lng": "114.190173", "name": "Harbour Heights M/S", "lat": "22.287717", "vacancy": "20"}, {"address": "609-611 Tai Nan West Street, Cheung Sha Wan", "id": "107", "lng": "114.148683", "name": "Easy Tower", "lat": "22.339061", "vacancy": "41"}, {"address": "3 On Chui Street, Sau Mau Ping", "id": "530", "lng": "114.235056", "name": "On Tat Estate", "lat": "22.320941", "vacancy": "NA"}, {"address": "4-30 Tai Pa Street, Tsuen Wan", "id": "109", "lng": "114.111754", "name": "Tsuen Wan Plaza", "lat": "22.371041", "vacancy": "NA"}, {"address": "4 On Chee Road, Tai Po", "id": "110", "lng": "114.167417", "name": "Fortune Plaza", "lat": "22.452264", "vacancy": "25"}, {"address": "38 Cheung Wah Street, Cheung Sha Wan", "id": "111", "lng": "114.155278", "name": "Lai Bo Garden", "lat": "22.340048", "vacancy": "36"}, {"address": "37K Yen Chow Street, Sham Shui Po", "id": "112", "lng": "114.159781", "name": "Dragon Centre", "lat": "22.330537", "vacancy": "NA"}, {"address": "2-4 Village Road, Happy Valley", "id": "114", "lng": "114.183513", "name": "HK Sanatorium & Hospital", "lat": "22.269131", "vacancy": "NA"}, {"address": "Cheung Wang Estate, Tsing Yi", "id": "116", "lng": "114.096716", "name": "Cheung Wang Car Park", "lat": "22.357386", "vacancy": "NA"}, {"address": "Market Street & Shanghai Street, Yau Ma Tei", "id": "546", "lng": "114.170700", "name": "Yau Ma Tei Car Park", "lat": "22.309297", "vacancy": "100"}, {"address": "126 Heung Sze Wui Road, Tuen Mun", "id": "120", "lng": "113.975881", "name": "Eldo Court", "lat": "22.397948", "vacancy": "104"}, {"address": "16 Glass Street / 4 Whifield Road, North Point", "id": "121", "lng": "114.190508", "name": "Kam Tao Building", "lat": "22.286523", "vacancy": "NA"}, {"address": "989 King's Road, Quarry Bay", "id": "122", "lng": "114.212387", "name": "Sunway Gardens", "lat": "22.286158", "vacancy": "303"}, {"address": "18 Sung On Street, Hunghom", "id": "123", "lng": "114.189427", "name": "Peninsula Square", "lat": "22.311401", "vacancy": "89"}, {"address": "22-40 Fuk Man Road & Chan Man Street, Sai Kung", "id": "124", "lng": "114.271712", "name": "Sai Kung Town Centre", "lat": "22.382540", "vacancy": "170"}, {"address": "33 San Wan Road, Fanling", "id": "126", "lng": "114.141812", "name": "Fanling Centre", "lat": "22.490904", "vacancy": "71"}, {"address": "14 Science Museum Road, Tsim Sha Tsui", "id": "127", "lng": "114.178925", "name": "New Mandarin Plaza", "lat": "22.300563", "vacancy": "103"}, {"address": "188 Lockhart Road, Wan Chai", "id": "129", "lng": "114.174183", "name": "Siu On Centre", "lat": "22.278185", "vacancy": "28"}, {"address": "128 Tai Po Road, Sham Shui Po", "id": "130", "lng": "114.166455", "name": "The Merrylands", "lat": "22.329837", "vacancy": "8"}, {"address": "5-7 San Lau Street, To Kwa Wan", "id": "132", "lng": "114.186999", "name": "Cheong Shing Court", "lat": "22.312345", "vacancy": "7"}, {"address": "Lung Poon Court, Diamond Hill", "id": "134", "lng": "114.201363", "name": "Lung Poon Court ", "lat": "22.341790", "vacancy": "NA"}, {"address": "33 Lockhart Road, Wan Chai", "id": "135", "lng": "114.169954", "name": "MassMutual Tower", "lat": "22.278720", "vacancy": "39"}, {"address": "88 Container Port Road, Kwai Chung", "id": "137", "lng": "114.124476", "name": "Ever Gain Plaza I", "lat": "22.353259", "vacancy": "NA"}, {"address": "455 Castle Peak Road, Tsuen Wan", "id": "138", "lng": "114.111428", "name": "Chinachem Tsuen Wan Plaza", "lat": "22.375248", "vacancy": "42"}, {"address": "11 Yip Hing Street / Yip Kan Street, Aberdeen", "id": "139", "lng": "114.164777", "name": "Southmark", "lat": "22.249312", "vacancy": "NA"}, {"address": "75 Tsing King Road, Tsing Yi", "id": "140", "lng": "114.107351", "name": "Tivoli Garden", "lat": "22.354834", "vacancy": "NA"}, {"address": "Stage 7, Mei Foo Sun Chuen, Lai Chi Kok", "id": "539", "lng": "114.138046", "name": "Mei Foo Sun Chuen Stage 7", "lat": "22.338037", "vacancy": "134"}, {"address": "So Uk Estate, Cheung Sha Wan, Kowloon", "id": "533", "lng": "114.157967", "name": "So Uk Estate Phase 1 ", "lat": "22.340467", "vacancy": "NA"}, {"address": "Tong Ming Court, Tseung Kwan O", "id": "436", "lng": "114.257013", "name": "Tong Ming Car Park", "lat": "22.307783", "vacancy": "NA"}, {"address": "100 Nathan Road, Tsim Sha Tsui", "id": "492", "name": "The One", "lng": "114.172416", "lat": "22.299678"}, {"address": "19-27 Tai Tong Road, Yuen Long", "id": "150", "name": "Yuen Long Hop Yick Plaza", "lng": "114.029388", "lat": "22.443066"}, {"address": "338 King's Road, North Point", "id": "151", "name": "Two Chinachem Exchange Square", "lng": "114.197213", "lat": "22.290396"}, {"address": "2 Tuen Hi Road, Tuen Mun", "id": "152", "name": "Tuen Mun Parklane Square", "lng": "113.977390", "lat": "22.391262"}, {"address": "11 Wo Shing Street, Fo Tan", "id": "157", "name": "CCT Telecom Building", "lng": "114.197897", "lat": "22.397457"}, {"address": "Cheung On Estate, Tsing Yi", "id": "159", "name": "Cheung On Car Park", "lng": "114.100855", "lat": "22.362236"}, {"address": "Cheung Fat Shopping Centre, Tsing Yi", "id": "160", "name": "Cheung Fat Plaza Car Park", "lng": "114.102210", "lat": "22.361804"}, {"address": "Tsing King Road, Tsing Yi", "id": "161", "name": "Ching Wang Car Park", "lng": "114.104927", "lat": "22.362164"}, {"address": "59-65 Bedford Road, Tai Kok Tsui", "id": "162", "name": "Bedford Road", "lng": "114.163883", "lat": "22.322870"}, {"address": "Ex-Kowloon City Ferry Pier, Kowloon City", "id": "163", "name": "San Ma Tau Street", "lng": "114.192667", "lat": "22.318339"}, {"address": "2-20A Minden Avenue, Tsim Sha Tsui", "id": "164", "name": "Harbour Pinnacle (The Pinnacle)", "lng": "114.174512", "lat": "22.296743"}, {"address": "16 Chan Man Street, Sai Kung", "id": "166", "name": "Sai Kung Garden", "lng": "114.271476", "lat": "22.382624"}, {"address": "133 Wan Chai Road, Wan Chai", "id": "167", "name": "Times Media Centre", "lng": "114.176091", "lat": "22.276440"}, {"address": "Wang Kwong Road, Kowloon Bay", "id": "513", "name": "Wang Kwong Road", "lng": "114.205614", "lat": "22.328226"}, {"address": "3 Shum Wan Road, Aberdeen", "id": "175", "name": "South Wave Court", "lng": "114.166035", "lat": "22.245129"}, {"address": "Pok Fu Lum Road or Kotewall Road, Pok Fu Lum", "id": "179", "name": "The University of Hong Kong (Main Campus)", "lng": "114.137049", "lat": "22.283994"}, {"address": "Po Fu Lum Road, Po Fu Lam", "id": "180", "name": "The University of Hong Kong (Composite Building)", "lng": "114.135938", "lat": "22.283224"}, {"address": "Sasson Road, Pok Fu Lam (Car park entrance at Northcote Close)", "id": "181", "name": "Faculty of Medical Building, HKU", "lng": "114.129117", "lat": "22.267878"}, {"address": "36 Yen Chow Street,Cheung Sha Wan", "id": "182", "name": "Cheung Sha Wan Wholesale Food Market", "lng": "114.153078", "lat": "22.323584"}, {"address": "Soy Street & Shanghai Street, Mongkok", "id": "183", "name": "Soy Street", "lng": "114.168870", "lat": "22.316294"}, {"address": "Mei Lam Estate, Tai Wai", "id": "187", "name": "Mei Lam Car Park", "lng": "114.175335", "lat": "22.377966"}, {"address": "Sun Chui Estate, Tai Wai", "id": "188", "name": "Sun Chui Car Park", "lng": "114.182485", "lat": "22.368794"}, {"address": "Mei Chung Court, Tai Wai", "id": "189", "name": "Mei Chung Car Park", "lng": "114.173698", "lat": "22.379509"}, {"address": "Lung Hang Estate, Tai Wai", "id": "190", "name": "Lung Hang Car Park", "lng": "114.179015", "lat": "22.368149"}, {"address": "Hin Keng Estate, Tai Wai", "id": "191", "name": "Hin Keng Car Park", "lng": "114.172658", "lat": "22.364815"}, {"address": "No. 26 Aberdeen Reservoir Road, Aberdeen", "id": "509", "name": "Yue Kwong Chuen", "lng": "114.156789", "lat": "22.251536"}, {"address": "No. 13-19 WIng Lung Street, Cheung Sha Wan", "id": "501", "name": "Wing Lung Street", "lng": "114.158653", "lat": "22.338041"}, {"address": "11-17 Sha Tin Centre Street, Shatin", "id": "196", "name": "Wai Wah Centre", "lng": "114.187797", "lat": "22.381338"}, {"address": "16 Mei Tin Road / 15 & 35 Tsuen Nam Road, Tai Wai", "id": "197", "name": "Grandway Garden", "lng": "114.177861", "lat": "22.373975"}, {"address": "B1-B2, 1 Tai Uk Street, Tsuen Wan", "id": "198", "name": "Concord Square", "lng": "114.115052", "lat": "22.370147"}, {"address": "22-26A Austin Avenue, Tsim Sha Tsui", "id": "199", "name": "Austin Tower", "lng": "114.175066", "lat": "22.302892"}, {"address": "Chun Shek Estate, Tai Wai", "id": "201", "name": "Chun Shek Car Park", "lng": "114.187533", "lat": "22.373452"}, {"address": "Ma Sik Road and Tin Ping Road, Sheung Shui", "id": "432", "name": "Ma Sik Road", "lng": "114.136247", "lat": "22.502901"}, {"address": "70 Waterloo Road, Mongkok", "id": "422", "name": "Tsan Yung Mansion", "lng": "114.174884", "lat": "22.317073"}, {"address": "Ka Tin Court, Tai Wai", "id": "204", "name": "Ka Tin Car Park", "lng": "114.173334", "lat": "22.360306"}, {"address": "8 Sun Yip Street, Chai Wan", "id": "208", "name": "8 Commercial Tower", "lng": "114.246903", "lat": "22.267065"}, {"address": "3 Ngau Tau Kok Road, Ngau Tau Kok", "id": "209", "name": "Tak Bo Garden", "lng": "114.214379", "lat": "22.327475"}, {"address": "Wo Che Estate, Shatin", "id": "212", "name": "Wo Che Car Park", "lng": "114.195076", "lat": "22.387420"}, {"address": "Sha Kok Estate, Shatin", "id": "213", "name": "Sha Kok Car Park", "lng": "114.193563", "lat": "22.376910"}, {"address": "No. 54-56 Granville Road, Tsim Sha Tsui", "id": "549", "name": "Granville Road", "lng": "114.175094", "lat": "22.300158"}, {"address": "Yu Chui Court, Shatin", "id": "219", "name": "Yu Chui Car Park", "lng": "114.204485", "lat": "22.382252"}, {"address": "Sui Wo Court, Shatin", "id": "220", "name": "Sui Wo Car Park", "lng": "114.194330", "lat": "22.392683"}, {"address": "Lek Yuen Estate, Shatin", "id": "221", "name": "Lek Yuen Plaza Car Park", "lng": "114.192121", "lat": "22.386729"}, {"address": "Kwong Yuen Estate, Shatin", "id": "222", "name": "Kwong Yuen Car Park", "lng": "114.215589", "lat": "22.381255"}, {"address": "No. 26 Shiu Wo Street, Tsuen Wan", "id": "506", "name": "Brighton Place", "lng": "114.117487", "lat": "22.372153"}, {"address": "28 Beach Road, Repulse Bay", "id": "505", "name": "The Pulse", "lng": "114.198495", "lat": "22.235342"}, {"address": "n/a", "id": "502", "name": "Lisa House (Service Suspension)", "lng": "114.172760", "lat": "22.318942"}, {"address": "No. 29 Ka Wai Man Road, Kennedy Town", "id": "510", "name": "Cayman Rise", "lng": "114.124726", "lat": "22.281243"}, {"address": "No. 55 Choi Ha Road, Ngau Tau Kok", "id": "508", "name": "Cheerful Court", "lng": "114.216747", "lat": "22.325633"}, {"address": "No. 8 Observatory Road, Tsim Sha Tsui", "id": "520", "name": "No. 8 Observatory Road", "lng": "114.175749", "lat": "22.301007"}, {"address": "On Luk Street, Ma On Shan", "id": "504", "name": "On Luk Street", "lng": "114.233959", "lat": "22.422818"}, {"address": "No. 18 Tong Chun Street, Tseung Kwan O", "id": "537", "name": "The Parkside", "lng": "114.261387", "lat": "22.305212"}, {"address": "9 Chi Cheong Road, Sheung Shui", "id": "240", "name": "Sheung Shui Town Centre", "lng": "114.131953", "lat": "22.501268"}, {"address": "13-15 Kong Pui Street, Shatin", "id": "241", "name": "Shatin Park Stage 3", "lng": "114.197650", "lat": "22.379749"}, {"address": "1-3 Kong Pui Street, Shatin", "id": "242", "name": "Shatin Park Stage 2", "lng": "114.196187", "lat": "22.381429"}, {"address": "8-12 Sha Ko Street, Shatin", "id": "243", "name": "Shatin Park Stage 1", "lng": "114.197809", "lat": "22.379526"}, {"address": "18 Fanling Station Road, Fanling", "id": "244", "name": "Fanling Town Centre", "lng": "114.138851", "lat": "22.492384"}, {"address": "9 Chui Lok Street, Tai Po", "id": "245", "name": "Evergreen Court", "lng": "114.164348", "lat": "22.453768"}, {"address": "2-4C Catchick Street & 1B Sands Street, Kennedy Town", "id": "247", "name": "Harbour View Garden", "lng": "114.129753", "lat": "22.283540"}, {"address": "34 Tai Yau Street, San Po Kong", "id": "249", "name": "New Tech Plaza", "lng": "114.196771", "lat": "22.336858"}, {"address": "Rodney Street, Queensway, Admiralty", "id": "251", "name": "Admiralty Car Park", "lng": "114.165858", "lat": "22.278412"}, {"address": "No. 1 Tuen Hi Road, Tuen Mun (Operating Hours: Mon-Fri (Excl.PH) 19:00-07:00, Sat/Sun/PH 07:00-07:00)", "id": "544", "name": "Tuen Mun Government Office", "lng": "113.976336", "lat": "22.389971"}, {"address": "86 Tseuk Luk Street, San Po Kong", "id": "253", "name": "Hong King Building", "lng": "114.197358", "lat": "22.335265"}, {"address": "69 Jervois Street, Sheung Wan", "id": "255", "name": "69 Jervois Street", "lng": "114.151222", "lat": "22.285279"}, {"address": "26-28 Sha Tsui Road, Tsuen Wan", "id": "258", "name": "Thriving Industrial Centre", "lng": "114.108821", "lat": "22.373849"}, {"address": "251 Castle Peak Road, Yuen Long", "id": "259", "name": "Yuen Long Plaza", "lng": "114.023893", "lat": "22.445176"}, {"address": "8 Lung Wan Street, Sheung Shui", "id": "260", "name": "Metropolis Plaza", "lng": "114.129308", "lat": "22.502504"}, {"address": "166-174 Hing Fong Road, Kwai Chung", "id": "261", "name": "Sun Kwai Hing Plaza", "lng": "114.131427", "lat": "22.364029"}, {"address": "San Shing Avenue, Sheung Shui", "id": "263", "name": "San Shing Avenue ", "lng": "114.127750", "lat": "22.506142"}, {"address": "Fung Nam Road, Sheung Shui", "id": "264", "name": "Fung Nam Road", "lng": "114.128102", "lat": "22.507611"}, {"address": "392 Kwun Tong Road, Kwun Tong", "id": "265", "name": "Millennium City 6", "lng": "114.222139", "lat": "22.312870"}, {"address": "370-378 Kwun Tong Road, Kwun Tong", "id": "266", "name": "Millennium City 2 & 3", "lng": "114.219985", "lat": "22.314163"}, {"address": "388 Kwun Tong Road, Kwun Tong", "id": "267", "name": "Millennium City 1", "lng": "114.221147", "lat": "22.313257"}, {"address": "538 Castle Peak Road, Cheung Sha Wan", "id": "268", "name": "Peninsula Tower", "lng": "114.150803", "lat": "22.339778"}, {"address": "1 Sai Lau Kok Road, Tsuen Wan", "id": "269", "name": "Grand City Plaza", "lng": "114.114483", "lat": "22.374723"}, {"address": "56 Kwai Cheong Road, Kwai Chung", "id": "270", "name": "Millennium Trade Centre", "lng": "114.132733", "lat": "22.363318"}, {"address": "Siu Lek Yuen Road, Shatin", "id": "271", "name": "Castello", "lng": "114.216042", "lat": "22.382783"}, {"address": "99 Po Kong Village Road, Tsz Wan Shan", "id": "272", "name": "The Forest Hills", "lng": "114.198823", "lat": "22.345431"}, {"address": "1 Tuen Lung Street, Tuen Mun", "id": "273", "name": "K-Point", "lng": "113.975446", "lat": "22.393530"}, {"address": "Po Kong Village Road, San Po Kong", "id": "423", "name": "Po Kong Village Road", "lng": "114.198308", "lat": "22.339808"}, {"address": "421 Queen's Road West, Sai Ying Pun", "id": "275", "name": "Wah Ming Centre", "lng": "114.137365", "lat": "22.286122"}, {"address": "King Hin Court, Hammer Hill", "id": "276", "name": "King Hin Court ", "lng": "114.208782", "lat": "22.341075"}, {"address": "138 Fuk Hang Tsuen Road, Lam Tei, Tuen Mun", "id": "278", "name": "Botania Villa", "lng": "113.985295", "lat": "22.418318"}, {"address": "87-105 Tsuen King Circuit, Tsuen Wan", "id": "279", "name": "Tsuen Wan Centre Phase l & ll", "lng": "114.108991", "lat": "22.378498"}, {"address": "328-338 Castle Peak Road, Tsuen Wan", "id": "280", "name": "Tsuen Kam Centre", "lng": "114.116005", "lat": "22.374260"}, {"address": "120 Lung Cheung Road, Wong Tai Sin", "id": "283", "name": "Hsin Kuang Centre", "lng": "114.196299", "lat": "22.342209"}, {"address": "363 Des Voeux Road West, Sai Ying Pun", "id": "286", "name": "Lun Fung Court", "lng": "114.136405", "lat": "22.286987"}, {"address": "1-27 Tsuen Kwai Street, Tsuen Wan", "id": "287", "name": "Wealthy Garden", "lng": "114.122356", "lat": "22.369316"}, {"address": "3-9 Sha Tin Central Street, Shatin", "id": "288", "name": "Hilton Plaza", "lng": "114.186974", "lat": "22.378848"}, {"address": "178 Gloucester Road, Wan Chai", "id": "290", "name": "Chinachem Century Tower", "lng": "114.178581", "lat": "22.279997"}, {"address": "1 Shum Mong Road, Tai Kok Tsui", "id": "291", "name": "HSBC Centre", "lng": "114.160679", "lat": "22.319356"}, {"address": "8 Cheung Yue Street, Cheung Sha Wan", "id": "292", "name": "Billion Plaza", "lng": "114.150540", "lat": "22.336803"}, {"address": "No. 99-103A Connaught Road West, Sai Ying Pun", "id": "497", "name": "Connaught Road West", "lng": "114.145303", "lat": "22.288357"}, {"address": "138 Yeung Uk Road, Tsuen Wan", "id": "294", "name": "Indihome", "lng": "114.118462", "lat": "22.365733"}, {"address": "11 Leung Tak Street, Tuen Mun", "id": "296", "name": "Blossom Garden", "lng": "113.968635", "lat": "22.407666"}, {"address": "9 Wah King Hill Road, Lai King", "id": "297", "name": "Wonderland Villas", "lng": "114.136115", "lat": "22.353405"}, {"address": "188 Connaught Road West, Sai Ying Pun", "id": "299", "name": "Hong Kong Plaza", "lng": "114.136351", "lat": "22.287106"}, {"address": "48-66 Hennessy Road, Wan Chai", "id": "300", "name": "Shanghai Industrial Investment Building", "lng": "114.171026", "lat": "22.277397"}, {"address": "38 San Ma Tau Street, Tokwawan", "id": "302", "name": "Grand Waterfront", "lng": "114.193933", "lat": "22.318731"}, {"address": "2 Tuen Lee Street, Tuen Mun", "id": "524", "name": "New Town Mansion", "lng": "113.978174", "lat": "22.391169"}, {"address": "Ap Lei Chau Estate, Ap Lei Chau", "id": "434", "name": "Ap Lei Chau Car Park", "lng": "114.151007", "lat": "22.243915"}, {"address": "15 Kwai Yi Road, Kwai Fong", "id": "307", "name": "Kwai Fong Terrace", "lng": "114.128387", "lat": "22.356217"}, {"address": "Yuet Lai Court, Kwai Chung", "id": "308", "name": "Yuet Lai Court ", "lng": "114.127489", "lat": "22.347702"}, {"address": "Yi Fung Court, Kwai Chung", "id": "309", "name": "Yi Fung Court", "lng": "114.139007", "lat": "22.361715"}, {"address": "Tsui Yiu Court, Kwai Chung", "id": "310", "name": "Tsui Yiu Court", "lng": "114.131389", "lat": "22.350463"}, {"address": "Shek Yam Estate Phase 5, Kwai Chung", "id": "311", "name": "Shek Yam (Phase 5) Estate", "lng": "114.139762", "lat": "22.370350"}, {"address": "Lei Muk Shue Estate II, Tsuen Wan", "id": "312", "name": "Lei Muk Shue Estate II ", "lng": "114.135477", "lat": "22.378016"}, {"address": "Lai Yiu Estate, Kwai Chung", "id": "313", "name": "Lai Yiu Estate", "lng": "114.131266", "lat": "22.354266"}, {"address": "Lei Muk Shue Estate I, Tsuen Wan", "id": "314", "name": "Lei Muk Shue Estate I", "lng": "114.135048", "lat": "22.377629"}, {"address": "Lai King Estate, Kwai Chung", "id": "315", "name": "Lai King Estate", "lng": "114.127516", "lat": "22.351971"}, {"address": "Kwai Shing West Estate, Kwai Chung", "id": "316", "name": "Kwai Shing West Estate", "lng": "114.124716", "lat": "22.362958"}, {"address": "Kwai Chung Estate, Kwai Chung", "id": "317", "name": "Kwai Chung Estate", "lng": "114.127119", "lat": "22.368090"}, {"address": "Fuk Loi Estate, Tsuen Wan", "id": "318", "name": "Fuk Loi Estate", "lng": "114.113064", "lat": "22.373343"}, {"address": "Cheung Shan Estate, Tsuen Wan", "id": "319", "name": "Cheung Shan Estate ", "lng": "114.129724", "lat": "22.378113"}, {"address": "Cheung Ching Estate, Tsing Yi", "id": "320", "name": "Cheung Ching Estate", "lng": "114.107668", "lat": "22.349991"}, {"address": "Tak Keung Court, Wang Tau Hom", "id": "321", "name": "Tak Keung Court", "lng": "114.186401", "lat": "22.339575"}, {"address": "Mei Tung Estate, Kowloon City", "id": "324", "name": "Mei Tung Estate", "lng": "114.190500", "lat": "22.333479"}, {"address": "Ka Keung Court, Wang Tau Hom", "id": "326", "name": "Ka Keung Court", "lng": "114.184878", "lat": "22.341795"}, {"address": "Fu Shan Estate, Hammer Hill", "id": "327", "name": "Fu Shan Estate", "lng": "114.208173", "lat": "22.342202"}, {"address": "Choi Wan (ll) Estate, Choi Hung", "id": "328", "name": "Choi Wan (ll) Estate ", "lng": "114.216638", "lat": "22.333273"}, {"address": "Choi Fung Court, Choi Hung", "id": "329", "name": "Choi Fung Court", "lng": "114.214202", "lat": "22.333562"}, {"address": "Fu Tung Estate, Tung Chung", "id": "330", "name": "Fu Tung Car Park", "lng": "113.941918", "lat": "22.288188"}, {"address": "Ching Wah Court, Tsing Yi", "id": "331", "name": "Ching Wah Car Park", "lng": "114.097127", "lat": "22.348359"}, {"address": "Tsing Yi Estate, Tsing Yi", "id": "333", "name": "Tsing Yi Car Park", "lng": "114.103890", "lat": "22.353715"}, {"address": "Cheung Hang Estate, Tsing Yi", "id": "334", "name": "Cheung Hang Car Park", "lng": "114.097770", "lat": "22.355732"}, {"address": "Yin Lai Court, Kwai Chung", "id": "335", "name": "Yin Lai Car Park", "lng": "114.126835", "lat": "22.349366"}, {"address": "Kwai Fong Estate, Kwai Fong", "id": "336", "name": "Kwai Fong Plaza Car Park", "lng": "114.128412", "lat": "22.359701"}, {"address": "Kwai Hong Court, Kwai Chung", "id": "337", "name": "Kwai Hong Car Park", "lng": "114.130496", "lat": "22.362695"}, {"address": "Kwai Hing Estate, Kwai Chung", "id": "338", "name": "Kwai Hing Car Park", "lng": "114.132328", "lat": "22.363823"}, {"address": "Kwai Shing East Estate, Kwai Chung", "id": "339", "name": "Kwai Shing East Car Park", "lng": "114.127361", "lat": "22.365401"}, {"address": "Shek Lei Estate II, Kwai Chung", "id": "340", "name": "Shek Lei II Car Park", "lng": "114.140128", "lat": "22.365907"}, {"address": "Shek Lei Estate I, Kwai Chung", "id": "341", "name": "Shek Lei I Car Park", "lng": "114.138843", "lat": "22.364868"}, {"address": "Ning Fung Court, Kwai Chung", "id": "342", "name": "Ning Fung Car Park", "lng": "114.138419", "lat": "22.371666"}, {"address": "Shek Yam Estate, Kwai Chung", "id": "343", "name": "Shek Yam Car Park", "lng": "114.138787", "lat": "22.372063"}, {"address": "On Yam Estate, Kwai Chung", "id": "344", "name": "On Yam Car Park", "lng": "114.141764", "lat": "22.370436"}, {"address": "Tai Wo Hau Estate, Kwai Chung", "id": "345", "name": "Tai Wo Hau Car Park", "lng": "114.123624", "lat": "22.366802"}, {"address": "Shek Wai Kok Estate, Tsuen Wan", "id": "346", "name": "Shek Wai Kok Car Park", "lng": "114.123168", "lat": "22.375751"}, {"address": "Tai Ho Road, Tsuen Wan", "id": "429", "name": "Tai Ho Road", "lng": "114.110259", "lat": "22.368566"}, {"address": "No. 100 Kwai Cheong Road, Kwai Chung", "id": "512", "name": "KC100", "lng": "114.132539", "lat": "22.361070"}, {"address": "8 Fung Mat Road, Sai Ying Pun", "id": "352", "name": "Western Wholesale Food Market", "lng": "114.136679", "lat": "22.288411"}, {"address": "5-55 Fu Ning Street, Kowloon City", "id": "355", "name": "Chun Seen Mei Chuen", "lng": "114.188418", "lat": "22.325197"}, {"address": "14 & 16 Shipyard Lane, Quarry Bay", "id": "357", "name": "Splendid Place", "lng": "114.213748", "lat": "22.285423"}, {"address": "Chi Fu Road, Pok Fu Lum", "id": "359", "name": "Chi Fu Fa Yuen", "lng": "114.139074", "lat": "22.257985"}, {"address": "Chi Shin Street, Tseung Kwan O", "id": "526", "name": "Chi Shin Street", "lng": "114.260057", "lat": "22.304822"}, {"address": "88 Tai Ho Road, Tsuen Wan", "id": "363", "name": "Skyline Plaza", "lng": "114.111267", "lat": "22.369875"}, {"address": "No. 160 Kau Pui Lung Road, To Kwa Wan", "id": "536", "name": "Lok Man Sun Chuen ", "lng": "114.186408", "lat": "22.317331"}, {"address": "Ma Miu Road, Yuen Long", "id": "365", "name": "Ma Miu Road", "lng": "114.022148", "lat": "22.445189"}, {"address": "1 Shek Pai Tau Path, Tuen Mun", "id": "368", "name": "Chelsea Heights Phase II", "lng": "113.974389", "lat": "22.400443"}, {"address": "2 On Chee Road, Tai Po", "id": "369", "name": "Eightland Gardens", "lng": "114.166876", "lat": "22.452401"}, {"address": "62 Kimberley Road, Tsim Sha Tsui", "id": "371", "name": "Empire Hotel Kowloon", "lng": "114.175107", "lat": "22.300693"}, {"address": "No. 12 Fung Yip Street, Chai Wan", "id": "373", "name": "Kailey Industrial Centre", "lng": "114.244423", "lat": "22.267034"}, {"address": "Pok Fu Lam Road, Pok Fu Lam", "id": "494", "name": "The University of Hong Kong (Centennial Campus)", "lng": "114.134865", "lat": "22.283693"}, {"address": "No. 1063 King's Road, Quarry Bay", "id": "379", "name": "1063 King's Road", "lng": "114.213891", "lat": "22.285351"}, {"address": "Choi Ming Court, Tseung Kwan O", "id": "435", "name": "Choi Ming Car Park", "lng": "114.252711", "lat": "22.306408"}, {"address": "No. 2B Ching Hong Road, Tsing Yi", "id": "550", "name": "Ching Chun Court", "lng": "114.108046", "lat": "22.346590"}, {"address": "20-28 Tsat Tsz Mui Road, North Point", "id": "383", "name": "Wealthy Court", "lng": "114.201390", "lat": "22.290709"}, {"address": "Stage 4 Mei Foo Sun Chuen, Lai Chi Kok", "id": "540", "name": "Mei Foo Sun Chuen Stage 4", "lng": "114.142419", "lat": "22.336439"}, {"address": "51 Hung To Road, Kwun Tong", "id": "392", "name": "Paul Y. Centre", "lng": "114.221735", "lat": "22.311262"}, {"address": "Murray Road Multi-storey Car Park Building, Murray Road, Central", "id": "553", "name": "Murray Road ", "lng": "114.162634", "lat": "22.280330"}, {"address": "No. 123 Hollywood Road, Sheung Wan", "id": "396", "name": "Hollywood Terrace", "lng": "114.150724", "lat": "22.283994"}, {"address": "No. 133 Hoi Bun Road, Kwun Tong", "id": "397", "name": "MG Tower", "lng": "114.217290", "lat": "22.312709"}, {"address": "No. 34 Lee Chung Street, Chai Wan", "id": "398", "name": "Haking (Tung Shing) Industrial Building", "lng": "114.236202", "lat": "22.266257"}, {"address": "Junction of Tung Chau Street & Yen Chow Street West, Sham Shui Po", "id": "528", "name": "Tung Chau Street", "lng": "114.157472", "lat": "22.328593"}, {"address": "26 Hoi Shing Road, Tsuen Wan", "id": "401", "name": "Clague Garden Estate", "lng": "114.111015", "lat": "22.369799"}, {"address": "1/F & 2/F AquaMarine, 8 Sham Shing Road, Lai Chi Kok (Operating Hours 08:00-23:00)", "id": "403", "name": "AEON Lai Chi Kok Store", "lng": "114.148555", "lat": "22.333159"}, {"address": "Junction of Bailey Street and Hung Hom Road, Hung Hom (Operating Hours 09:00-19:00)", "id": "404", "name": "Hung Hom Road", "lng": "114.190358", "lat": "22.311743"}, {"address": "41 Lockhart Road, Wan Chai", "id": "405", "name": "East Town Building", "lng": "114.170634", "lat": "22.278628"}, {"address": "Level 1, Bellagio, 33 Castle Peak Road, Sham Tseng", "id": "406", "name": "Bellagio", "lng": "114.060981", "lat": "22.367321"}, {"address": "No. 218-224 Sai Lau Kok Road, Tsuen Wan", "id": "407", "name": "Ho Fai Garden", "lng": "114.120998", "lat": "22.370724"}, {"address": "No. 14-28 Tsing Sin Street, Tuen Mun", "id": "408", "name": "Hong King Garden", "lng": "113.980130", "lat": "22.385455"}, {"address": "No. 1 Po Wing Road, Sheung Shui", "id": "409", "name": "Venice Garden", "lng": "114.127417", "lat": "22.497959"}, {"address": "11-17A South Lane, Western District", "id": "410", "name": "South Lane", "lng": "114.134711", "lat": "22.285364"}, {"address": "No. 171 Prince Edward Road West, Mongkok", "id": "412", "name": "Bijou Court", "lng": "114.169568", "lat": "22.323994"}, {"address": "No.1 Lung Poon Street, Diamond Hill", "id": "417", "name": "Bel Air Heights", "lng": "114.201411", "lat": "22.341760"}, {"address": "85-95 Un Chau Street, Sham Shui Po", "id": "418", "name": "Capital Building", "lng": "114.162665", "lat": "22.332748"}, {"address": "Hoi Wah Road, Tuen Mun", "id": "419", "name": "Hoi Wah Road", "lng": "113.970526", "lat": "22.379740"}, {"address": "Tsuen King Circuit, Tsuen Wan", "id": "498", "name": "Tsuen King Circuit", "lng": "114.106002", "lat": "22.379982"}, {"address": "Wu Shan Road, Tuen Mun", "id": "496", "name": "Wu Shan Road", "lng": "113.969263", "lat": "22.375146"}, {"address": "Pak Wo Road, Fanling", "id": "521", "name": "Ka Fuk Estate", "lng": "114.135774", "lat": "22.492990"}, {"address": "Lei Muk Shue Shopping Centre, Tsuen Wan", "id": "427", "name": "Lei Muk Shue Shopping Centre", "lng": "114.137000", "lat": "22.377867"}, {"address": "Hoi Yu Street, Quarry Bay", "id": "428", "name": "Hoi Yu Street Waterfront Promenade", "lng": "114.214479", "lat": "22.290126"}, {"address": "Tsui Ping (North) Estate, Kwun Tong", "id": "438", "name": "Tsui Ping (North) Car Park", "lng": "114.229333", "lat": "22.316860"}, {"address": "Tsui Ping (South) Estate, Kwun Tong", "id": "439", "name": "Tsui Ping (South) Car Park", "lng": "114.229746", "lat": "22.313247"}, {"address": "Tsui Wan Estate, Chai Wan", "id": "440", "name": "Tsui Wan Car Park", "lng": "114.239635", "lat": "22.267101"}, {"address": "Hau Tak Estate, Tseung Kwan O", "id": "443", "name": "TKO Gateway Car Park (Hau Tak Car Park)", "lng": "114.267313", "lat": "22.317044"}, {"address": "Upper Ngau Tau Kok Estate, Ngau Tau Kok", "id": "444", "name": "Upper Ngau Tau Kok Car Park", "lng": "114.217979", "lat": "22.318676"}, {"address": "Junction of Ping Ha Road and Kiu Fat Street, Tin Shui Wai", "id": "503", "name": "Ping Ha Road", "lng": "114.004679", "lat": "22.444814"}, {"address": "Hing Tung Estate, Shau Kei Wan", "id": "448", "name": "Hing Tung Car Park", "lng": "114.219253", "lat": "22.282147"}, {"address": "Hing Wah Estate, Chai Wan", "id": "449", "name": "Hing Wah Plaza", "lng": "114.234670", "lat": "22.263105"}, {"address": "Hiu Lai Court, Kwun Tong", "id": "450", "name": "Hiu Lai Car Park", "lng": "114.230470", "lat": "22.318676"}, {"address": "Wan Tsui Estate, Chai Wan", "id": "451", "name": "Wan Tsui Car Park", "lng": "114.236285", "lat": "22.261432"}, {"address": "Hong Pak Court, Yau Tong", "id": "452", "name": "Hong Pak Car Park", "lng": "114.238903", "lat": "22.302957"}, {"address": "Wo Ming Court, Tseung Kwan O", "id": "453", "name": "Wo Ming Car Park", "lng": "114.267726", "lat": "22.316011"}, {"address": "Yan Ming Court, Tseung Kwan O", "id": "454", "name": "Yan Ming Car Park", "lng": "114.258853", "lat": "22.323629"}, {"address": "Ying Ming Court, Tseung Kwan O", "id": "455", "name": "Ying Ming Car Park", "lng": "114.256681", "lat": "22.326234"}, {"address": "Yiu Tung Estate, Shau Kei Wan", "id": "457", "name": "Yiu Tung Car Park ", "lng": "114.223641", "lat": "22.277315"}, {"address": "Yue On Court, Ap Lei Chau", "id": "458", "name": "Yue On Car Park", "lng": "114.157780", "lat": "22.242289"}, {"address": "Hong Shui Court, Yau Tong", "id": "459", "name": "Hong Shui Car Park", "lng": "114.241290", "lat": "22.301689"}, {"address": "Hong Yat Court, Yau Tong", "id": "460", "name": "Hong Yat Car Park", "lng": "114.234228", "lat": "22.310066"}, {"address": "Kai Tin Estate, Yau Tong", "id": "461", "name": "Kai Tin Car Park", "lng": "114.234239", "lat": "22.308748"}, {"address": "Kin Ming Estate, Tseung Kwan O", "id": "462", "name": "Kin Ming Car Park", "lng": "114.250917", "lat": "22.307011"}, {"address": "King Lam Estate, Tseung Kwan O", "id": "463", "name": "King Lam Car Park", "lng": "114.261739", "lat": "22.321540"}, {"address": "Ko Chun Court, Yau Tong", "id": "464", "name": "Ko Chun Car Park", "lng": "114.241749", "lat": "22.298085"}, {"address": "Ko Yee Estate, Yau Tong", "id": "465", "name": "Ko Yee Car Park", "lng": "114.241655", "lat": "22.296313"}, {"address": "Junction of Man Wui Street and Ferry Street, Jordan", "id": "523", "name": "Man Wui Street", "lng": "114.166035", "lat": "22.306743"}, {"address": "Lei Tung Estate, Ap Lei Chau", "id": "467", "name": "Lei Tung Car Park", "lng": "114.155239", "lat": "22.241934"}, {"address": "Lok Nga Court, Kwun Tong", "id": "468", "name": "Lok Nga Car Park", "lng": "114.220830", "lat": "22.322284"}, {"address": "Lok Wah (North) Estate, Kwun Tong", "id": "469", "name": "Lok Wah (North) Car Park", "lng": "114.220787", "lat": "22.322304"}, {"address": "Lok Wah (South) Estate, Kwun Tong", "id": "470", "name": "Lok Wah (South) Car Park", "lng": "114.220593", "lat": "22.320619"}, {"address": "Ma Hang Estate, Stanley", "id": "471", "name": "Ma Hang Car Park", "lng": "114.208538", "lat": "22.220945"}, {"address": "Stanley Plaza, Stanley", "id": "472", "name": "Stanley Plaza Car Park", "lng": "114.208653", "lat": "22.220805"}, {"address": "Ming Tak Estate, Tseung Kwan O", "id": "473", "name": "Ming Tak Car Park", "lng": "114.268042", "lat": "22.316230"}, {"address": "Oi Tung Estate, Shau Kei Wan", "id": "474", "name": "Oi Tung Car Park", "lng": "114.226785", "lat": "22.280296"}, {"address": "Ping Tin Estate, Lam Tin", "id": "475", "name": "Ping Tin Car Park", "lng": "114.236419", "lat": "22.308525"}, {"address": "Po Lam Estate, Tseung Kwan O", "id": "476", "name": "Po Lam Car Park", "lng": "114.255012", "lat": "22.326973"}, {"address": "Po Pui Court, Kwun Tong", "id": "477", "name": "Po Pui Car Park", "lng": "114.228265", "lat": "22.316716"}, {"address": "Po Tat Estate, Sau Mau Ping", "id": "478", "name": "Po Tat Car Park", "lng": "114.237854", "lat": "22.316870"}, {"address": "Sau Mau Ping (I) Estate", "id": "479", "name": "Sau Mau Ping I Car Park", "lng": "114.233227", "lat": "22.315438"}, {"address": "Sau Ma Ping (III) Estate", "id": "480", "name": "Sau Mau Ping III Car Park", "lng": "114.230628", "lat": "22.321778"}, {"address": "Sau Mau Ping Shopping Centre", "id": "481", "name": "Sau Mau Ping Car Park", "lng": "114.232439", "lat": "22.320210"}, {"address": "Sheung Tak Estate, Tseung Kwan O", "id": "482", "name": "Sheung Tak Car Park", "lng": "114.258059", "lat": "22.310384"}, {"address": "Shun Lee Estate, Sau Mau Ping", "id": "483", "name": "Shun Lee Car Park", "lng": "114.224553", "lat": "22.332998"}, {"address": "Shun On Estate, Sau Mau Ping", "id": "484", "name": "Shun On Car Park", "lng": "114.226710", "lat": "22.327996"}, {"address": "Shun Tin Estate, Sau Mau Ping", "id": "485", "name": "Shun Tin Car Park", "lng": "114.225674", "lat": "22.327008"}, {"address": "Siu Sai Wan Estate", "id": "486", "name": "Siu Sai Wan Car Park", "lng": "114.247726", "lat": "22.264739"}, {"address": "Tak Tin Estate, Lam Tin", "id": "488", "name": "Tak Tin Plaza Car Park", "lng": "114.238981", "lat": "22.309242"}, {"address": "Wah Lai Estate, Lai King", "id": "490", "name": "Wah Lai Car Park", "lng": "114.138004", "lat": "22.343050"}, {"address": "Junction of Shung Shun Street and Yan Yue Wai, Yau Tong", "id": "532", "name": "Tung Yuen Street", "lng": "114.236051", "lat": "22.291835"}, {"address": "Choi Tak Estate, Ngau Tau Kok\r\n", "id": "534", "name": "Choi Tak Estate", "lng": "114.213590", "lat": "22.331062"}, {"address": "Choi Fook Estate, Ngau Tau Kok", "id": "535", "name": "Choi Fook Estate", "lng": "114.217740", "lat": "22.327524"}, {"address": "No. 18 Lam Lok Street, Kowloon Bay", "id": "538", "name": "Nan Fung Commercial Centre", "lng": "114.207625", "lat": "22.322515"}, {"address": "No.11 Sheung Yuet Road, Kowloon Bay", "id": "542", "name": "Centre Parc ", "lng": "114.208386", "lat": "22.321996"}, {"address": "No.8 Wang Kwong Road, Kowloon Bay", "id": "543", "name": "Mega Cube", "lng": "114.206842", "lat": "22.322132"}, {"address": "No. 188 Ma On Shan Road, Ma On Shan", "id": "545", "name": "Park Belvedere", "lng": "114.233225", "lat": "22.419816"}, {"address": "174-208 Castle Peak Road, Tsuen Wan", "id": "547", "name": "Tsuen Wan Car Park", "lng": "114.118925", "lat": "22.372809"}, {"address": "Lau Sin Street & Electric Road, Tin Hau", "id": "548", "name": "Tin Hau Car Park", "lng": "114.191560", "lat": "22.283044"}, {"address": "No. 376 Sha Tsui Road, Tsuen Wan", "id": "551", "name": "Sheung Chui Court", "lng": "114.120089", "lat": "22.367645"}, {"address": "No. 88 Po Hong Road, Tseung Kwan O", "id": "552", "name": "Serenity Place", "lng": "114.253260", "lat": "22.322152"}, {"address": "No.30-34 Kwai Wing Road, Kwai Chung", "id": "554", "name": "EDGE", "lng": "114.134197", "lat": "22.366886"}]